City_ID,City,Lat,Lng,Max Temp,Humidity,Cloudiness,Wind Speed,Country,Date
0,lompoc,34.6391,-120.4579,18.94,67,0,4.47,US,1699923258
1,novotroitsk,51.203,58.3266,4.39,69,100,5.17,RU,1699923480
2,grytviken,-54.2811,-36.5092,2.29,98,100,3.44,GS,1699923481
3,alice springs,-23.7,133.8833,32.75,15,4,3.6,AU,1699923446
4,atafu village,-8.5421,-172.5159,28.29,81,100,5.58,TK,1699923481
5,blackmans bay,-43.0167,147.3167,17.51,46,23,1.34,AU,1699923233
6,utrik,11.2278,169.8474,28.16,81,100,7.99,MH,1699923481
7,bengkulu,-3.8004,102.2655,25.79,87,92,0.8,ID,1699923426
8,port-aux-francais,-49.35,70.2167,6.69,97,100,16.34,TF,1699923481
9,qaqortoq,60.7167,-46.0333,-5.14,93,100,1.62,GL,1699923389
10,iqaluit,63.7506,-68.5145,-17.95,64,0,2.57,CA,1699923352
11,saskatoon,52.1168,-106.6345,2.99,69,75,4.63,CA,1699923182
12,ilulissat,69.2167,-51.1,-3.99,63,75,7.2,GL,1699923392
13,badger,64.8,-147.5333,-2.79,95,100,2.57,US,1699923370
14,hamilton,39.1834,-84.5333,11.51,50,0,2.06,US,1699923458
15,kudahuvadhoo,2.6708,72.8944,27.38,74,97,1.78,MV,1699923481
16,edinburgh of the seven seas,-37.0676,-12.3116,13.62,77,8,11.32,SH,1699923481
17,yaren,-0.5472,166.916,27.98,79,100,11.88,NR,1699923412
18,olonkinbyen,70.9221,-8.7187,-1.67,70,99,2.65,SJ,1699923482
19,nuku'alofa,-21.1333,-175.2,22.19,100,100,8.23,TO,1699923401
20,enewetak,11.3474,162.3373,28.4,80,70,8.88,MH,1699923396
21,dawei,14.0833,98.2,27.23,79,100,3.54,MM,1699923482
22,port elizabeth,-33.918,25.5701,17.16,86,100,5.14,ZA,1699923483
23,lebu,-37.6167,-73.65,10.1,87,53,3.15,CL,1699923300
24,vernon,50.2581,-119.2691,9.2,49,4,1.54,CA,1699923447
25,san rafael del yuma,18.4299,-68.6739,26.11,87,0,3.27,DO,1699923483
26,kourou,5.1552,-52.6478,26.03,87,11,3.75,GF,1699923483
27,margaret river,-33.95,115.0667,17.11,75,100,5.28,AU,1699923483
28,ribeira grande,38.5167,-28.7,15.99,90,100,1.34,PT,1699923483
29,college,64.8569,-147.8028,-2.74,94,100,2.57,US,1699923484
30,yellowknife,62.456,-114.3525,-6.71,86,100,2.06,CA,1699923240
31,susuman,62.7833,148.1667,-30.13,98,77,0.44,RU,1699923484
32,port saint john's,-31.6229,29.5448,16.71,77,100,2.82,ZA,1699923484
33,bethel,41.3712,-73.414,5.83,75,75,1.54,US,1699923233
34,pangai,-19.8,-174.35,28.06,83,75,4.12,TO,1699923484
35,georgetown,5.4112,100.3354,28.3,89,20,2.06,MY,1699923361
36,waitangi,-43.9535,-176.5597,13.21,88,1,9.08,NZ,1699923354
37,walvis bay,-22.9575,14.5053,16.53,82,34,3.09,NA,1699923485
38,port douglas,-16.4833,145.4667,25.98,61,58,4.44,AU,1699923485
39,antsohihy,-14.8796,47.9875,25.21,83,91,0.52,MG,1699923485
40,farasan,16.7022,42.1183,29.16,74,24,6.07,SA,1699923485
41,sisimiut,66.9395,-53.6735,-8.79,78,100,3.51,GL,1699923485
42,puerto maldonado,-12.6,-69.1833,28.76,61,92,0.69,PE,1699923485
43,bikenibeu village,1.3673,173.1241,30.98,79,75,4.12,KI,1699923485
44,invercargill,-46.4,168.35,14.99,55,74,4.96,NZ,1699923485
45,udachny,66.4167,112.4,-5.86,85,100,3.85,RU,1699923485
46,albany,42.6001,-73.9662,2.41,76,93,0.72,US,1699923476
47,tura,25.5198,90.2201,18.81,84,6,1.44,IN,1699923416
48,aasiaat,68.7098,-52.8699,-10.17,83,100,1.56,GL,1699923486
49,mananara,-16.1667,49.7667,21.96,93,93,0.72,MG,1699923486
50,hawaiian paradise park,19.5933,-154.9731,27.73,69,40,3.6,US,1699923486
51,puerto ayora,-0.7393,-90.3518,23.64,97,100,1.34,EC,1699923229
52,tonekabon,36.8163,50.8738,14.97,61,3,1.92,IR,1699923486
53,preobrazheniye,42.9019,133.9064,0.9,48,0,3.66,RU,1699923487
54,katsuura,35.1333,140.3,13.9,42,0,0.47,JP,1699923271
55,touros,-5.1989,-35.4608,26.68,79,94,5.27,BR,1699923487
56,kapa'a,22.0752,-159.319,28.99,84,100,6.17,US,1699923487
57,hithadhoo,-0.6,73.0833,27.05,81,70,3.87,MV,1699923487
58,mersing,2.4312,103.8405,24.95,94,40,2.57,MY,1699923487
59,sabang,5.8933,95.3214,26.51,84,100,4.78,ID,1699923487
60,akjoujt,19.6969,-14.4164,26.51,18,40,2.99,MR,1699923488
61,papatowai,-46.5619,169.4708,17.58,47,53,5.14,NZ,1699923488
62,weno,7.4515,151.8468,28.4,74,100,2.6,FM,1699923342
63,nemuro,43.3236,145.575,4.75,58,14,8.24,JP,1699923488
64,nikol'sk,53.7189,46.0712,5.08,78,100,6.11,RU,1699923488
65,vila franca do campo,37.7167,-25.4333,17.23,99,67,1.85,PT,1699923380
66,shendi,16.6915,33.4341,30.55,27,100,3.86,SD,1699923488
67,brookings,44.3114,-96.7984,11.21,45,23,8.07,US,1699923313
68,east london,-33.0153,27.9116,15.94,73,99,2.85,ZA,1699923489
69,puerto deseado,-47.7503,-65.8938,9.13,52,100,10.86,AR,1699923284
70,san antonio de pale,-1.4014,5.6325,26.17,81,31,3.48,GQ,1699923489
71,calderitas,18.55,-88.25,25.61,88,100,1.93,MX,1699923489
72,thief river falls,48.1191,-96.1812,5.53,65,0,4.63,US,1699923489
73,geraldton,-28.7667,114.6,23.23,73,100,4.12,AU,1699923282
74,bilibino,68.0546,166.4372,-27.84,100,100,1.88,RU,1699923227
75,fortuna,40.5982,-124.1573,14.81,91,0,0.0,US,1699923490
76,buchen,49.5239,9.3231,10.79,85,100,7.75,DE,1699923490
77,macapa,0.0389,-51.0664,29.99,74,20,5.14,BR,1699923490
78,hammerfest,70.6634,23.6821,-0.75,86,100,1.54,NO,1699923490
79,san diego country estates,33.0067,-116.7836,19.94,34,100,0.35,US,1699923490
80,adamstown,-25.066,-130.1015,22.85,85,100,7.76,PN,1699923353
81,saipan,15.1355,145.701,31.39,70,20,7.72,MP,1699923226
82,marina di schiavonea,39.65,16.5333,16.07,85,27,3.88,IT,1699923491
83,darhan,49.4867,105.9228,-9.23,82,100,1.55,MN,1699923491
84,sinabang,2.4803,96.3801,24.14,93,100,1.31,ID,1699923491
85,ust'-kulom,61.6864,53.6902,2.19,99,100,3.91,RU,1699923491
86,dudinka,69.4058,86.1778,-21.4,90,8,3.5,RU,1699923238
87,tomatlan,19.9333,-105.25,25.18,83,11,0.57,MX,1699923392
88,djibo,14.1022,-1.6306,26.15,13,0,3.5,BF,1699923491
89,abilene,32.4487,-99.7331,12.12,75,100,2.57,US,1699923154
90,kruisfontein,-34.0033,24.7314,12.12,89,60,2.6,ZA,1699923492
91,peresvet,56.423,38.1761,2.99,92,100,5.31,RU,1699923492
92,fale old settlement,-9.3852,-171.2468,26.49,89,100,6.38,TK,1699923403
93,kayangel,8.0823,134.7173,28.75,78,63,6.87,PW,1699923492
94,puan,35.7281,126.7319,5.94,67,97,1.94,KR,1699923492
95,hermanus,-34.4187,19.2345,15.64,77,11,9.8,ZA,1699923356
96,iskateley,67.6803,53.1512,-11.1,88,100,4.02,RU,1699923492
97,san luis de la loma,17.2706,-100.8939,27.11,81,23,2.65,MX,1699923493
98,guerrero negro,27.9769,-114.0611,20.89,54,100,4.59,MX,1699923354
99,jieshou,33.2634,115.3611,6.03,45,0,2.49,CN,1699923493
100,coahuayana de hidalgo,18.7,-103.6583,26.63,81,7,0.71,MX,1699923493
101,aguadilla,18.4275,-67.1541,27.03,89,0,4.12,PR,1699923493
102,lodja,-3.4833,23.4333,21.06,100,100,1.01,CD,1699923493
103,kailua-kona,19.6406,-155.9956,30.28,74,40,5.14,US,1699923419
104,isafjordur,66.0755,-23.124,1.61,86,57,2.89,IS,1699923352
105,itaituba,-4.2761,-55.9836,30.09,66,100,0.0,BR,1699923494
106,chos malal,-37.3781,-70.2709,12.64,30,0,4.13,AR,1699923494
107,eirunepe,-6.6603,-69.8736,25.54,86,88,0.16,BR,1699923494
108,puerto natales,-51.7236,-72.4875,1.06,85,87,3.51,CL,1699923494
109,avarua,-21.2078,-159.775,24.03,60,75,4.63,CK,1699923494
110,palpa,-14.5336,-75.1856,22.28,69,10,0.99,PE,1699923494
111,la passe,45.5549,-0.8967,16.13,95,100,6.01,FR,1699923494
112,santana,-0.0583,-51.1817,30.1,74,20,5.14,BR,1699923494
113,bredasdorp,-34.5322,20.0403,14.81,81,9,7.13,ZA,1699923364
114,kapuskasing,49.4169,-82.4331,1.05,93,100,4.12,CA,1699923362
115,petropavlovsk-kamchatsky,53.0452,158.6483,-3.08,74,0,12.52,RU,1699923278
116,tsiombe,-25.3,45.4833,21.73,83,98,2.4,MG,1699923495
117,la'ie,21.6477,-157.9253,28.98,72,78,4.02,US,1699923333
118,constantia,44.1833,28.65,2.38,50,31,4.18,RO,1699923245
119,nuuk,64.1835,-51.7216,-3.66,86,100,6.17,GL,1699923354
120,mugia,43.1041,-9.2179,18.84,96,100,12.53,ES,1699923450
121,acapulco de juarez,16.8634,-99.8901,29.9,66,0,4.63,MX,1699923278
122,longyearbyen,78.2186,15.6401,-10.09,85,75,4.63,SJ,1699923369
123,jamestown,42.097,-79.2353,8.77,75,0,4.12,US,1699923320
124,dalby,-27.1833,151.2667,31.51,32,0,6.52,AU,1699923408
125,shingu,33.7333,135.9833,13.69,54,0,2.16,JP,1699923496
126,al kharijah,25.4514,30.5464,22.56,49,1,4.91,EG,1699923496
127,talcahuano,-36.7167,-73.1167,11.82,76,0,4.63,CL,1699923496
128,marka,1.7159,44.7717,27.03,79,100,3.09,SO,1699923496
129,stanley,54.868,-1.6985,8.77,90,20,6.17,GB,1699923247
130,okhotsk,59.3833,143.3,-15.34,78,100,7.13,RU,1699923497
131,egersund,58.4513,5.9997,5.05,66,100,11.6,NO,1699923498
132,maragogi,-9.0122,-35.2225,25.28,85,100,3.15,BR,1699923498
133,inari,68.906,27.0288,-17.89,98,40,1.25,FI,1699923498
134,vila velha,-20.3297,-40.2925,26.97,84,0,5.36,BR,1699923398
135,punta arenas,-53.15,-70.9167,3.06,70,20,8.23,CL,1699923498
136,diapaga,12.0708,1.7889,24.58,16,26,2.88,BF,1699923499
137,kosan,38.8558,127.4181,2.7,46,100,2.61,KP,1699923499
138,valdivia,-39.8142,-73.2459,10.05,98,16,1.23,CL,1699923499
139,lazaro cardenas,17.9583,-102.2,27.49,78,97,3.06,MX,1699923499
140,kodiak,57.79,-152.4072,6.73,49,40,7.2,US,1699923499
141,port lincoln,-34.7333,135.8667,16.73,70,64,4.74,AU,1699923339
142,port mathurin,-19.6833,63.4167,24.05,94,20,0.0,MU,1699923500
143,robore,-18.3333,-59.75,29.68,49,9,2.51,BO,1699923500
144,thunder bay,48.4001,-89.3168,-1.05,80,40,1.54,CA,1699923382
145,tiksi,71.6872,128.8694,-15.17,93,100,2.61,RU,1699923228
146,nar'yan-mar,67.6713,53.087,-11.05,88,100,4.02,RU,1699923297
147,el alto,-4.2714,-81.2147,19.81,85,25,8.54,PE,1699923500
148,el granada,37.5027,-122.4694,18.86,75,0,4.12,US,1699923361
149,altai,46.3722,96.2583,-8.45,95,100,2.02,MN,1699923501
150,vorgashor,67.5833,63.95,-14.16,90,100,3.41,RU,1699923255
151,lubang,13.8584,120.124,26.99,83,100,11.1,PH,1699923501
152,karaton,-6.3424,106.1045,27.66,77,99,0.31,ID,1699923501
153,betio village,1.358,172.9211,31.02,80,99,7.87,KI,1699923501
154,hastings,50.8552,0.5729,13.86,85,100,12.7,GB,1699923501
155,zhangye,38.9342,100.4517,0.36,37,19,3.94,CN,1699923400
156,kutum,14.2,24.6667,23.1,34,21,3.76,SD,1699923502
157,pelabuhanratu,-6.9875,106.5514,27.64,83,93,1.2,ID,1699923502
158,coquimbo,-29.9533,-71.3436,14.85,82,0,3.6,CL,1699923502
159,tazovsky,67.4667,78.7,-20.04,98,19,2.7,RU,1699923502
160,xining,36.6167,101.7667,0.31,53,0,0.87,CN,1699923502
161,muynoq,43.7683,59.0214,5.91,48,61,5.63,UZ,1699923502
162,kantemirovka,49.7089,39.8592,5.16,80,100,2.59,RU,1699923502
163,kirakira,-10.4544,161.9205,27.46,79,96,1.71,SB,1699923503
164,chateau-thierry,49.05,3.4,11.79,82,93,6.97,FR,1699923503
165,el sauzal de rodriguez,31.9,-116.6833,15.79,77,100,1.26,MX,1699923503
166,polyarnyy,69.1989,33.4478,-8.84,96,86,0.86,RU,1699923334
167,sultanah,24.4926,39.5857,25.25,29,20,2.06,SA,1699923453
168,talnakh,69.4865,88.3972,-17.4,97,52,4.55,RU,1699923503
169,happy valley-goose bay,53.3168,-60.3315,-3.83,74,40,5.66,CA,1699923503
170,kunwi,36.2347,128.5728,6.54,57,10,2.22,KR,1699923503
171,vicuna,-30.0319,-70.7081,21.54,47,6,0.28,CL,1699923342
172,williston,48.147,-103.618,7.95,48,100,2.87,US,1699923503
173,selfoss,63.9331,-20.9971,6.69,71,100,7.98,IS,1699923439
174,haenam,34.5711,126.5989,8.42,65,7,3.05,KR,1699923504
175,saudarkrokur,65.7461,-19.6394,-1.58,83,10,4.2,IS,1699923504
176,webster,42.0501,-71.8801,3.29,87,100,1.5,US,1699923268
177,remire-montjoly,4.9167,-52.2667,26.02,89,0,1.54,GF,1699923504
178,uturoa,-16.7333,-151.4333,26.95,83,61,6.91,PF,1699923505
179,luderitz,-26.6481,15.1594,15.28,81,0,1.94,NA,1699923505
180,saint-denis,48.9167,2.3333,12.43,83,0,8.23,FR,1699923373
181,karratha,-20.7377,116.8463,26.67,41,6,6.17,AU,1699923265
182,portland,45.5234,-122.6762,12.34,82,100,0.45,US,1699922826
183,kill devil hills,36.0307,-75.676,9.99,80,0,0.0,US,1699923329
184,ust-nera,64.5667,143.2,-28.83,97,59,2.16,RU,1699923505
185,yongchuan,29.3514,105.8947,11.59,81,100,1.33,CN,1699923505
186,fort bragg,35.139,-79.006,10.75,79,0,0.0,US,1699923299
187,mata-utu,-13.2816,-176.1745,28.96,75,79,4.34,WF,1699923440
188,'ain benian,36.8028,2.9219,12.03,58,2,1.27,DZ,1699923506
189,santyoku,37.4406,129.1708,7.79,32,66,1.57,KR,1699923506
190,gadzhiyevo,69.2551,33.3362,-8.77,96,87,1.01,RU,1699923506
191,galesong,-5.3166,119.3661,30.01,65,99,0.75,ID,1699923506
192,torghay,49.6339,63.4981,4.3,76,100,5.53,KZ,1699923506
193,antsiranana,-12.2787,49.2917,23.72,86,44,2.94,MG,1699923506
194,thompson,55.7435,-97.8558,-1.91,86,100,2.06,CA,1699923368
195,fada,9.5667,8.3,22.17,31,100,1.94,NG,1699923506
196,dien bien phu,21.3833,103.0167,18.94,96,100,0.93,VN,1699923507
197,caleta olivia,-46.4393,-67.5281,8.16,67,100,11.7,AR,1699923507
198,loboc,9.6383,124.0348,28.56,76,100,1.72,PH,1699923507
199,nadi,-17.8,177.4167,32.0,58,75,4.63,FJ,1699923468
200,gulf shores,30.246,-87.7008,16.14,82,20,3.6,US,1699923257
201,tosontsengel,48.7567,98.2839,-14.89,88,100,1.08,MN,1699923507
202,palapye,-22.546,27.1251,18.31,74,31,5.94,BW,1699923507
203,huarmey,-10.0681,-78.1522,20.2,84,98,4.43,PE,1699923507
204,sinop,41.7711,34.8709,12.02,96,100,3.47,TR,1699923508
205,tralee,52.2704,-9.7026,11.08,88,100,6.19,IE,1699923383
206,nadym,65.5333,72.5167,-15.85,96,100,3.93,RU,1699923508
207,machakos,-1.5167,37.2667,17.97,98,95,0.81,KE,1699923508
208,kerrville,30.0474,-99.1403,12.53,96,100,3.6,US,1699923508
209,salakhid,32.8727,36.5727,16.67,59,30,3.06,SY,1699923508
210,labrador city,52.9463,-66.9114,-9.05,86,100,1.54,CA,1699923373
211,igarka,67.4667,86.5833,-15.33,90,86,7.64,RU,1699923227
212,anadyr,64.75,177.4833,-11.72,72,13,10.0,RU,1699923508
213,wattegama,6.7989,81.4808,24.05,94,97,1.17,LK,1699923509
214,yazd,31.8972,54.3675,13.06,35,40,1.03,IR,1699923509
215,antonio enes,-16.2325,39.9086,25.04,79,100,4.67,MZ,1699923509
216,yuzhno-kurilsk,44.0306,145.8556,2.43,80,77,10.27,RU,1699923509
217,el porvenir,13.7617,-87.3458,25.63,91,100,2.29,HN,1699923509
218,vilyuysk,63.7553,121.6247,-14.89,97,100,2.15,RU,1699923510
219,hasaki,35.7333,140.8333,15.16,38,0,4.32,JP,1699923293
220,margate,51.3813,1.3862,13.28,78,100,5.36,GB,1699923510
221,moreira sales,-24.0622,-53.0069,25.3,76,6,4.31,BR,1699923510
222,hirara,24.8,125.2833,22.92,60,40,6.17,JP,1699923272
223,egilsstadir,65.2653,-14.3948,1.95,87,75,4.63,IS,1699923454
224,krzeszowice,50.1425,19.6322,8.25,87,75,0.51,PL,1699923510
225,bairnsdale,-37.8333,147.6167,15.03,76,100,0.45,AU,1699923510
226,laukaa,58.7372,29.8453,0.38,94,97,2.5,RU,1699923511
227,golfito,8.639,-83.166,25.05,95,100,0.05,CR,1699923511
228,ushuaia,-54.8,-68.3,2.81,75,40,8.75,AR,1699923239
229,phanom sarakham,13.7479,101.3553,28.85,88,100,5.06,TH,1699923511
230,dakhla,23.6848,-15.958,21.47,62,100,4.45,EH,1699923511
231,papao,-17.75,-149.55,28.82,91,94,6.45,PF,1699923511
232,ko pha ngan,9.7578,100.0291,24.38,73,100,6.46,TH,1699923511
233,saldanha,-33.0117,17.9442,19.03,74,10,4.01,ZA,1699923511
234,rikaze,29.25,88.8833,-1.03,67,58,1.22,CN,1699923317
235,ancud,-41.8697,-73.8203,6.74,71,28,4.2,CL,1699923363
236,sao felix do xingu,-6.6447,-51.995,27.53,45,1,1.27,BR,1699923256
237,belyy yar,53.6039,91.3903,-7.06,93,100,0.0,RU,1699923512
238,charters towers,-20.1,146.2667,30.86,25,0,6.15,AU,1699923512
239,laojunmiao,39.8333,97.7333,-1.78,38,74,2.03,CN,1699923512
240,wailua homesteads,22.0669,-159.378,28.24,84,100,6.17,US,1699923512
241,ostrov,57.3439,28.3537,0.85,98,100,3.3,RU,1699923512
242,el calafate,-50.3408,-72.2768,3.94,54,100,5.17,AR,1699923450
243,gumdag,39.2061,54.5906,14.0,36,22,5.71,TM,1699923512
244,chonchi,-42.6128,-73.8092,6.56,88,68,1.53,CL,1699923513
245,novyy urengoy,66.0833,76.6333,-18.59,98,13,2.46,RU,1699923513
246,beyneu,45.3167,55.2,8.04,42,19,8.66,KZ,1699923513
247,gunnedah,-30.9833,150.25,30.16,26,6,3.83,AU,1699923513
248,flin flon,54.7682,-101.865,-0.09,86,75,2.06,CA,1699923385
249,tatarsk,55.219,75.9828,-0.17,90,91,2.56,RU,1699923513
250,cabo san lucas,22.8909,-109.9124,29.17,62,0,2.06,MX,1699923482
251,outjo,-20.1167,16.15,23.23,46,87,2.78,NA,1699923513
252,baruun-urt,46.6806,113.2792,-12.39,83,38,3.24,MN,1699923513
253,salym,60.0625,71.4789,-3.91,95,100,4.03,RU,1699923514
254,bontang,0.1333,117.5,26.83,81,96,1.17,ID,1699923463
255,yang talat,16.3998,103.3679,25.54,1,100,6.62,TH,1699923514
256,namibe,-15.1961,12.1522,23.07,62,100,2.8,AO,1699923514
257,singaparna,-7.3515,108.111,25.75,82,75,1.38,ID,1699923514
258,granada,37.25,-3.25,8.59,42,81,0.92,ES,1699923413
259,tongouson,5.0214,120.1328,28.42,70,55,0.01,PH,1699923514
260,tazacorte,28.629,-17.9293,24.53,36,0,4.92,ES,1699923514
261,visby,57.6409,18.296,0.46,93,75,1.54,SE,1699923515
262,crane,31.3974,-102.3501,11.2,83,100,3.49,US,1699923515
263,souillac,-20.5167,57.5167,22.21,94,75,1.54,MU,1699923515
264,calingasta,-31.3308,-69.4078,15.64,11,1,1.78,AR,1699923515
265,ouani,-12.1322,44.4258,26.38,84,100,1.01,KM,1699923515
266,aktau,43.65,51.2,7.32,57,33,4.89,KZ,1699923515
267,kerikeri,-35.2268,173.9474,22.17,68,100,1.34,NZ,1699923515
268,al jawf,29.5,38.75,20.87,52,0,4.59,SA,1699923515
269,choyr,46.3611,108.3611,-12.9,82,17,1.61,MN,1699923368
270,port augusta,-32.5,137.7667,24.82,39,78,6.38,AU,1699923278
271,christchurch,-43.5333,172.6333,25.11,38,100,5.66,NZ,1699923401
272,cidreira,-30.1811,-50.2056,20.21,97,100,1.69,BR,1699923516
273,kingston,17.997,-76.7936,28.53,80,20,7.72,JM,1699922998
274,mount gambier,-37.8333,140.7667,15.17,62,100,1.66,AU,1699923321
275,bubaque,11.2833,-15.8333,28.25,69,51,5.22,GW,1699923516
276,trongsa,27.5026,90.5072,7.64,77,44,1.75,BT,1699923517
277,hadibu,12.65,54.0333,26.19,86,85,4.98,YE,1699923517
278,ajaccio,42.0,8.9167,13.03,82,0,3.6,FR,1699923517
279,st. john's,47.5649,-52.7093,0.54,82,75,3.6,CA,1699923299
280,estacion coahuila,32.1939,-115.0017,24.38,18,100,2.29,MX,1699923517
281,grande prairie,55.1667,-118.8027,-2.9,93,100,5.66,CA,1699923330
282,charlottetown,46.2352,-63.1267,0.43,88,100,2.57,CA,1699923517
283,west island,-12.1568,96.8225,26.99,78,75,4.12,CC,1699923517
284,sitka,57.0531,-135.33,5.94,81,100,3.6,US,1699923393
285,mili,6.0815,171.735,28.18,82,100,7.04,MH,1699923518
286,kuqa,41.7278,82.9364,2.64,26,5,1.44,CN,1699923518
287,carnarvon,-24.8667,113.6333,21.41,68,100,2.97,AU,1699923518
288,myitkyina,25.3833,97.4,18.61,68,3,0.99,MM,1699923518
289,tshabong,-26.05,22.45,22.7,16,19,5.09,BW,1699923518
290,rio grande,-32.035,-52.0986,20.06,93,100,4.78,BR,1699923367
291,villa ojo de agua,-29.5,-63.6938,17.25,67,0,3.0,AR,1699923519
292,pangody,65.85,74.4859,-18.79,100,100,2.88,RU,1699923519
293,raduzhny,62.0961,77.475,-13.89,95,100,1.42,RU,1699923519
294,ishigaki,24.3448,124.1572,23.07,64,75,6.69,JP,1699923519
295,alaghsas,17.0187,8.0168,23.4,15,5,4.87,NE,1699923519
296,palmas,-10.2128,-48.3603,29.93,70,0,2.06,BR,1699923139
297,port alfred,-33.5906,26.891,13.99,94,94,5.23,ZA,1699923374
298,comodoro rivadavia,-45.8667,-67.5,11.92,24,0,9.26,AR,1699923274
299,bosanska krupa,44.8825,16.1514,12.7,90,100,3.36,BA,1699923519
300,san patricio,28.017,-97.5169,17.69,91,100,5.33,US,1699923520
301,mumford,5.2618,-0.759,26.43,86,0,2.35,GH,1699923520
302,opuwo,-18.0607,13.84,23.82,27,27,1.36,NA,1699923520
303,chibougamau,49.9168,-74.3659,-4.21,86,100,4.12,CA,1699923276
304,ceeldheer,3.8488,47.1806,26.58,83,77,0.79,SO,1699923520
305,mahina,-17.5065,-149.489,28.87,74,20,4.63,PF,1699923520
306,chui,-33.6971,-53.4616,16.28,88,100,4.6,UY,1699923521
307,sao jose da coroa grande,-8.8978,-35.1478,25.3,85,100,3.2,BR,1699923521
308,ust'-ordynskiy,52.805,104.7508,-5.93,88,100,0.48,RU,1699923522
309,cheyenne,41.14,-104.8203,11.08,26,0,3.09,US,1699923522
310,damghan,36.1683,54.348,12.26,47,98,0.85,IR,1699923522
311,joshimath,30.5667,79.5667,9.91,28,100,2.95,IN,1699923522
312,toliara,-23.35,43.6667,21.06,84,9,4.51,MG,1699923522
313,kununurra,-15.7667,128.7333,31.99,66,99,1.03,AU,1699923468
314,port-vila,-17.7338,168.3219,24.78,73,100,8.23,VU,1699923523
315,whitehorse,60.7161,-135.0538,-4.43,85,100,7.72,CA,1699923362
316,rio san juan,19.6439,-70.0763,26.21,84,4,5.2,DO,1699923523
317,itoman,26.1247,127.6694,22.21,56,75,6.17,JP,1699923523
318,estes park,40.3772,-105.5217,6.56,37,9,3.48,US,1699923523
319,anzio,41.4853,12.6179,18.39,87,81,2.9,IT,1699923523
320,labasa,-16.4167,179.3833,29.37,73,100,6.12,FJ,1699923523
321,saint-joseph,-21.3667,55.6167,21.93,79,65,2.8,RE,1699923524
322,nagqu,31.5,92.0,-7.66,39,100,1.96,CN,1699923524
323,palmer,42.1584,-72.3287,4.17,71,100,0.0,US,1699923306
324,amqui,48.4638,-67.4313,-7.01,98,100,0.89,CA,1699923310
325,manga,11.6636,-1.0731,24.8,18,50,2.83,BF,1699923524
326,pathein,16.7833,94.7333,24.5,88,90,2.91,MM,1699923524
327,mahdia,35.5047,11.0622,16.97,63,6,3.16,TN,1699923524
328,ryotsu-minato,38.0833,138.4333,11.08,63,93,6.24,JP,1699923524
329,kyren,51.6828,102.1408,-6.14,85,100,0.45,RU,1699923525
330,quellon,-43.1167,-73.6167,4.84,78,84,3.58,CL,1699923525
331,menongue,-14.6585,17.691,18.76,71,14,2.01,AO,1699923525
332,usogorsk,63.4106,48.6872,-0.74,94,100,3.27,RU,1699923525
333,bich'vinta,43.1592,40.3378,24.1,59,100,6.76,GE,1699923525
334,kuta,-8.7233,115.1723,28.97,83,75,2.68,ID,1699923525
335,truth or consequences,33.1284,-107.2528,15.13,60,0,2.57,US,1699923525
336,saint-pierre,-21.3393,55.4781,23.09,64,61,2.57,RE,1699923326
337,elverum,60.8819,11.5623,-7.19,96,100,2.19,NO,1699923525
338,bokhan,53.153,103.7714,-7.69,88,100,1.15,RU,1699923526
339,kismayo,-0.3582,42.5454,26.99,80,100,3.28,SO,1699923526
340,gisborne,-38.6533,178.0042,21.25,37,92,5.53,NZ,1699923526
341,mount darwin,-16.7725,31.5838,19.89,62,5,3.85,ZW,1699923526
342,rawson,-43.3002,-65.1023,16.15,25,100,11.65,AR,1699923457
343,pacasmayo,-7.4006,-79.5714,19.98,82,17,7.01,PE,1699923526
344,gizo,-8.103,156.8419,27.81,75,100,3.93,SB,1699923526
345,warmbad,-28.45,18.7333,23.89,13,0,6.48,NA,1699923526
346,muli,2.9167,73.5667,27.52,73,100,0.88,MV,1699923526
347,alofi,-19.0595,-169.9187,25.94,89,100,5.66,NU,1699923390
348,changyon,38.2508,125.0961,6.7,63,99,0.47,KP,1699923527
349,new norfolk,-42.7826,147.0587,18.17,37,11,3.2,AU,1699923234
350,tasqala,51.1167,50.3167,5.05,94,100,3.21,KZ,1699923527
351,bridgewater,44.3835,-64.5155,0.82,86,9,3.09,CA,1699923527
352,shalkar,47.8288,59.6258,4.93,80,100,6.12,KZ,1699923527
353,isangel,-19.55,169.2667,26.06,69,75,3.09,VU,1699923527
354,orda,57.1951,56.9091,3.33,95,100,7.44,RU,1699923527
355,dhuusamarreeb,5.535,46.3861,24.5,85,14,2.59,SO,1699923527
356,ketchikan,55.3422,-131.6461,5.99,70,0,1.54,US,1699923287
357,murtajapur,20.7333,77.3833,18.85,52,100,1.87,IN,1699923528
358,takum,7.2667,9.9833,24.55,82,99,1.49,NG,1699923528
359,livingstonia,-10.606,34.1063,19.39,79,31,1.5,MW,1699923528
360,siwa oasis,29.2041,25.5195,20.13,47,0,3.76,EG,1699923528
361,micoud,13.8167,-60.9,27.99,81,1,1.79,LC,1699923528
362,kingscliff,-28.2667,153.5667,26.08,69,75,3.6,AU,1699923528
363,loch garman,52.3342,-6.4575,12.16,96,100,4.92,IE,1699923528
364,robertsport,6.7533,-11.3686,27.36,80,100,2.01,LR,1699923528
365,denison,33.7557,-96.5367,15.44,59,0,0.0,US,1699923528
366,gofitskoye,45.0792,43.0464,9.37,71,100,7.93,RU,1699923528
367,liuduzhai,27.3661,110.935,8.21,77,55,0.25,CN,1699923529
368,yaring,6.8662,101.3689,28.49,81,100,2.48,TH,1699923529
369,eyl,7.9803,49.8164,26.75,78,36,5.37,SO,1699923529
370,sarupathar,26.1984,93.8094,18.4,86,16,0.79,IN,1699923529
371,cadale,2.7603,46.3222,27.63,75,100,1.75,SO,1699923529
372,saue,59.3203,24.5525,1.0,86,100,2.57,EE,1699923529
373,minas de marcona,-15.2119,-75.1103,14.48,87,67,5.82,PE,1699923290
374,beau vallon,-20.4189,57.6953,23.45,94,75,1.54,MU,1699923445
375,ciudad lazaro cardenas,17.9583,-102.2,27.49,78,97,3.06,MX,1699923529
376,tolanaro,-25.0319,46.9987,22.04,88,40,2.06,MG,1699923529
377,wenatchee,47.4235,-120.3103,11.21,52,0,6.17,US,1699923529
378,magadan,59.5667,150.8,-14.05,73,75,5.64,RU,1699923336
379,i-n-salah,27.1935,2.4607,20.17,31,0,5.12,DZ,1699923529
380,baker city,44.7749,-117.8344,8.84,69,75,2.06,US,1699923505
381,lihue,21.9789,-159.3672,28.58,79,100,6.17,US,1699923529
382,agat village,13.3886,144.6585,31.52,76,75,8.23,GU,1699923529
383,villa gonzalez ortega,22.5,-101.9167,15.94,71,86,6.93,MX,1699923530
384,gargalianoi,37.0667,21.6333,14.64,78,6,4.26,GR,1699923530
385,altay,47.8667,88.1167,-5.54,84,80,2.7,CN,1699923530
386,solnechnyy,50.7214,136.6319,-14.43,72,9,1.05,RU,1699923530
387,myeik,12.4333,98.6,26.63,81,36,1.95,MM,1699923530
388,kendari,-3.945,122.4989,30.06,67,43,0.45,ID,1699923530
389,brisas de zicatela,15.8369,-97.0419,27.76,75,100,1.45,MX,1699923530
390,nizhnesortymskiy,62.4397,71.7603,-10.35,91,100,4.54,RU,1699923530
391,guiglo,6.5456,-7.4966,22.73,95,10,0.67,CI,1699923530
392,darwin,-12.4611,130.8418,32.16,65,75,1.54,AU,1699923530
393,piracuruca,-3.9281,-41.7092,24.95,83,56,2.19,BR,1699923531
394,gidam,18.9833,81.4,17.8,74,100,1.16,IN,1699923531
395,hutchinson,38.0608,-97.9298,12.97,66,0,2.57,US,1699923237
396,bamboo flat,11.7,92.7167,25.05,94,100,1.03,IN,1699923531
397,neryungri,56.6709,124.6491,-14.49,88,100,0.07,RU,1699923531
398,nanga eboko,4.6833,12.3667,20.71,98,100,0.76,CM,1699923531
399,mount pearl,47.5166,-52.7813,0.08,82,75,3.6,CA,1699923531
400,sniatyn,48.4469,25.5694,3.19,75,28,1.92,UA,1699923531
401,jayapura,-2.5333,140.7,29.66,71,97,1.09,ID,1699923531
402,ad dilam,23.9915,47.1627,22.23,45,100,2.22,SA,1699923531
403,prince rupert,54.3161,-130.3201,6.83,78,75,2.57,CA,1699923531
404,ust-tsilma,65.441,52.1498,-5.22,95,100,1.34,RU,1699923531
405,amahai,-3.3333,128.9167,29.27,70,43,0.74,ID,1699923531
406,kavieng,-2.5744,150.7967,28.64,67,100,0.97,PG,1699923531
407,valparaiso,-33.0393,-71.6273,15.8,55,0,5.66,CL,1699923531
408,novodvinsk,64.4165,40.8122,-3.45,91,96,3.04,RU,1699923379
409,tanjungtiram,4.0613,98.3699,23.96,96,100,2.66,ID,1699923532
410,mar del plata,-38.0023,-57.5575,15.53,47,0,8.05,AR,1699922777
411,karbala,32.616,44.0249,22.19,31,86,1.11,IQ,1699923532
412,puerto armuelles,8.2833,-82.8667,28.98,84,100,3.13,PA,1699923532
413,kalaleh,37.3807,55.4916,12.78,76,0,0.0,IR,1699923532
414,feijo,-8.1642,-70.3536,23.28,96,69,0.64,BR,1699923532
415,colonia,50.9333,6.95,12.71,76,20,7.72,DE,1699923527
416,newman,37.3138,-121.0208,23.19,48,99,0.45,US,1699923485
417,hermoso campo,-27.6082,-61.3444,21.64,94,95,2.85,AR,1699923532
418,yegor'yevsk,55.3783,39.0411,5.48,96,100,5.36,RU,1699923532
419,tuy hoa,13.0833,109.3,26.1,90,90,5.43,VN,1699923532
420,zouerate,22.7187,-12.4521,24.4,16,9,4.67,MR,1699923533
421,al fqih ben calah,32.5009,-6.6906,19.53,37,6,1.27,MA,1699923533
422,severo-yeniseyskiy,60.3725,93.0408,-10.64,94,100,3.49,RU,1699923533
423,pyapon,16.2833,95.6833,25.61,88,96,2.55,MM,1699923533
424,fort dodge,42.4975,-94.168,13.0,33,0,2.57,US,1699923507
425,grambling,32.5276,-92.714,14.96,77,100,2.06,US,1699923533
426,kupang,-10.1667,123.5833,32.32,62,20,2.57,ID,1699923533
427,fos-sur-mer,43.4377,4.9446,14.25,94,75,1.03,FR,1699923533
428,aquidaba,-10.2814,-37.0186,20.38,94,100,2.4,BR,1699923533
429,harstad,68.799,16.5293,-2.99,70,3,5.36,NO,1699923454
430,savanna-la-mar,18.219,-78.1332,28.97,89,8,1.99,JM,1699923533
431,canasgordas,6.7499,-76.0254,18.94,99,98,1.22,CO,1699923533
432,la sarre,48.8002,-79.1996,0.49,99,100,3.58,CA,1699923533
433,bage,-31.3314,-54.1069,18.88,100,100,3.09,BR,1699923533
434,aleksandrovsk-sakhalinskiy,50.8975,142.1561,-3.84,84,100,5.75,RU,1699923427
435,pervomayskoye,43.919,46.7102,10.54,95,14,4.26,RU,1699923414
436,whakatane,-37.9585,176.9854,20.49,73,100,3.13,NZ,1699923242
437,yarmouth,41.7057,-70.2286,4.52,84,100,1.34,US,1699923534
438,axim,4.8699,-2.2405,25.87,89,0,2.06,GH,1699923534
439,santa cruz,-17.8,-63.1667,29.7,70,20,4.12,BO,1699923478
440,lesogorsk,56.0458,99.5136,-0.6,84,83,3.58,RU,1699923534
441,olpad,21.3333,72.75,21.32,40,100,3.68,IN,1699923534
442,bosobolo,4.1833,19.9,22.76,94,100,0.5,CD,1699923534
443,bovalino,38.149,16.174,20.19,79,40,3.76,IT,1699923534
444,chimoio,-19.1164,33.4833,18.79,84,100,1.33,MZ,1699923534
445,krasnokholm,51.5979,54.1567,6.59,74,100,5.75,RU,1699923534
446,porbandar,21.6422,69.6093,24.56,28,3,4.43,IN,1699923534
447,bouna,9.2667,-3.0,25.48,46,100,0.82,CI,1699923534
448,galliano,29.4422,-90.2992,18.0,94,100,4.63,US,1699923534
449,chicoana,-25.1009,-65.5331,20.03,82,99,1.52,AR,1699923534
450,huanan,46.2167,130.5167,-8.81,93,85,2.78,CN,1699923514
451,parnamirim,-5.9156,-35.2628,26.94,78,20,4.12,BR,1699923534
452,aden,12.7794,45.0367,26.67,75,72,5.48,YE,1699923534
453,merizo village,13.2658,144.6691,31.31,82,16,8.56,GU,1699923302
454,daruvar,45.5906,17.225,11.86,84,98,3.59,HR,1699923535
455,khadan khak,30.7477,67.7085,7.26,39,24,1.34,PK,1699923535
456,seaford,50.7714,0.1027,14.1,86,100,7.15,GB,1699923535
457,tvoroyri,61.5556,-6.8111,8.11,78,4,10.67,FO,1699923535
458,vallegrande,-18.4897,-64.1069,17.14,80,43,2.94,BO,1699923535
459,arar,30.9753,41.0381,17.01,34,20,2.06,SA,1699923535
460,andovoranto,-18.95,49.1,22.46,91,98,1.46,MG,1699923381
461,puerto el triunfo,13.2833,-88.55,26.79,84,57,0.3,SV,1699923535
462,ixtapa,20.7,-105.2,25.42,85,59,0.3,MX,1699923535
463,aykhal,66.0,111.5,-9.03,92,100,4.89,RU,1699923403
464,fisterra,42.9049,-9.2629,18.75,96,100,12.82,ES,1699923535
465,port moresby,-9.4431,147.1797,30.68,51,20,1.54,PG,1699923535
466,moyale,3.5167,39.0584,19.83,86,100,2.64,KE,1699923535
467,mont-laurier,46.5501,-75.4993,-2.21,91,97,1.94,CA,1699923535
468,shagonar,51.5333,92.8,-7.14,92,100,0.73,RU,1699923535
469,carauari,-4.8828,-66.8958,24.7,89,73,0.38,BR,1699923269
470,taulaga,-11.0553,-171.0883,28.68,75,100,4.08,AS,1699923536
471,vikhorevka,56.1201,101.1636,0.77,86,100,4.11,RU,1699923536
472,kalach,50.4258,41.0261,5.19,81,100,2.74,RU,1699923536
473,shijiang,27.0819,110.7933,8.35,77,15,0.28,CN,1699923536
474,mangrol,21.1167,70.1167,23.99,36,79,3.46,IN,1699923536
475,flying fish cove,-10.4217,105.6791,25.82,78,100,3.6,CX,1699923536
476,sechura,-5.5569,-80.8222,21.23,77,12,7.8,PE,1699923536
477,butte,39.6499,-121.5677,17.32,54,25,1.16,US,1699923369
478,totness,5.8833,-56.3167,27.09,82,34,4.88,SR,1699923536
479,isla mujeres,21.2311,-86.731,26.76,84,100,6.42,MX,1699923536
480,sete lagoas,-19.4658,-44.2467,31.6,34,60,1.35,BR,1699923536
481,banket,-17.3833,30.4,19.23,55,35,2.74,ZW,1699923536
482,bahia de kino,28.8333,-111.9333,27.73,54,33,3.17,MX,1699923536
483,mirnyy,62.5353,113.9611,-9.87,92,96,4.02,RU,1699923536
484,borovichi,58.3878,33.9155,3.34,94,100,1.79,RU,1699923537
485,puerto baquerizo moreno,-0.9,-89.6,23.66,84,100,4.9,EC,1699923319
486,arraial do cabo,-22.9661,-42.0278,24.98,88,0,2.57,BR,1699923368
487,griffith,41.5284,-87.4237,12.96,36,0,0.0,US,1699923537
488,tamandare,-8.7597,-35.1047,25.1,86,100,2.79,BR,1699923537
489,le port,-20.9373,55.2919,22.72,79,21,2.02,RE,1699923537
490,dolinsk,47.35,142.8,-2.93,78,100,2.66,RU,1699923537
491,el jadid,33.2549,-8.506,20.0,66,5,3.63,MA,1699923537
492,tabriz,38.08,46.2919,7.7,57,0,3.09,IR,1699923537
493,porto velho,-8.7619,-63.9039,27.03,83,40,1.54,BR,1699923537
494,miracema do tocantins,-9.5618,-48.3967,27.9,41,0,1.0,BR,1699923537
495,aral,40.5156,81.2636,4.0,39,0,3.23,CN,1699923537
496,puerto quijarro,-17.7833,-57.7667,30.51,47,76,0.93,BO,1699923537
497,vadso,70.0744,29.7487,-7.91,86,88,6.17,NO,1699923365
498,bethanie,-26.4833,17.15,22.9,10,0,1.56,NA,1699923537
499,saynshand,44.8824,110.1163,-6.16,48,0,2.04,MN,1699923538
500,letlhakeng,-24.0944,25.0298,21.5,54,0,5.1,BW,1699923538
501,micheweni,-4.9667,39.8333,25.9,85,8,1.49,TZ,1699923538
502,awjilah,29.1081,21.2869,18.58,85,0,3.75,LY,1699923538
503,saint-francois,46.4154,3.9054,18.69,74,100,6.69,FR,1699923538
504,lohardaga,23.4333,84.6833,15.88,70,100,0.84,IN,1699923538
505,klyuchi,52.2667,79.1667,3.16,92,99,4.15,RU,1699923538
506,hobyo,5.3505,48.5268,26.37,84,32,2.22,SO,1699923538
507,bati,11.1833,40.0167,17.48,72,48,2.33,ET,1699923538
508,san francisco de la paz,14.9,-86.2,25.84,98,100,1.18,HN,1699923538
509,youghal,51.95,-7.8506,11.56,100,96,9.21,IE,1699923461
510,yatou,37.15,122.3833,6.54,47,100,3.3,CN,1699923538
511,nova sintra,14.8667,-24.7167,23.72,72,100,5.32,CV,1699923266
512,lospalos,-8.5186,127.0025,30.64,46,16,2.02,TL,1699923538
513,salekhard,66.53,66.6019,-20.66,100,100,0.36,RU,1699923538
514,villa elisa,-25.3667,-57.6167,26.77,74,75,5.14,PY,1699923539
515,khandyga,62.6667,135.6,-28.01,99,65,1.32,RU,1699923539
516,ranot,7.7777,100.3213,27.89,77,83,3.4,TH,1699923539
517,piacabucu,-10.4056,-36.4344,24.5,84,83,3.27,BR,1699923539
518,guinticgan,11.5641,123.1236,27.49,83,100,6.61,PH,1699923539
519,hell-ville,-13.4,48.2667,26.8,78,99,1.47,MG,1699923539
520,saint-louis,16.3333,-15.0,27.8,17,17,3.9,SN,1699923539
521,malchin,53.7333,12.7833,9.26,79,100,8.58,DE,1699923539
522,fort st. john,56.2499,-120.8529,-4.06,93,75,6.17,CA,1699923539
523,idri,27.5,13.2667,17.96,54,96,3.5,LY,1699923539
524,kijang,35.2442,129.2139,4.85,36,4,1.71,KR,1699923539
525,byron bay,-28.65,153.6167,27.06,69,55,3.71,AU,1699923379
526,zhezqazghan,47.7833,67.7667,-0.68,93,20,4.0,KZ,1699923539
527,cabedelo,-6.9811,-34.8339,25.37,79,62,3.94,BR,1699923382
528,adjumani,3.3779,31.7909,19.78,95,21,0.84,UG,1699923539
529,yerofey pavlovich,53.9667,121.9667,-7.71,58,100,0.64,RU,1699923539
530,viedma,-40.8135,-62.9967,19.53,24,94,7.68,AR,1699923539
531,dzhambeyty,50.2536,52.595,6.71,68,100,4.37,KZ,1699923540
532,burang,30.25,81.1667,-4.92,48,61,1.27,CN,1699923540
533,sidi akkacha,36.4647,1.3026,16.16,55,6,1.65,DZ,1699923540
534,riachao das neves,-11.7461,-44.91,25.72,33,0,0.43,BR,1699923540
535,tandalti,13.0167,31.8667,30.55,28,0,4.05,SD,1699923540
536,melo,-32.3667,-54.1833,15.34,96,100,4.22,UY,1699923540
537,kidal,18.4411,1.4078,24.19,15,0,4.81,ML,1699923540
538,sheksna,59.21,38.5107,1.07,99,100,3.96,RU,1699923540
539,semdinli,37.3051,44.5742,9.21,77,9,0.54,TR,1699923540
540,pisco,-13.7,-76.2167,20.01,88,0,5.14,PE,1699923540
541,afaahiti,-17.75,-149.2833,27.93,89,99,5.98,PF,1699923540
542,jarocin,51.9727,17.5026,8.23,92,46,6.7,PL,1699923540
543,ak'ordat,15.5486,37.8867,26.12,67,18,1.4,ER,1699923540
544,novi pazar,43.1367,20.5122,7.62,73,100,1.73,RS,1699923540
545,zalukokoazhe,43.9039,43.2156,11.02,82,100,2.65,RU,1699923540
546,nova vicosa,-17.8919,-39.3719,24.84,81,83,7.37,BR,1699923541
547,kone,-21.0595,164.8658,28.27,40,5,3.98,NC,1699923283
548,donaldsonville,30.101,-90.9929,16.97,94,100,4.12,US,1699923541
549,kokopo,-4.352,152.2633,29.25,62,75,2.36,PG,1699923541
550,arinos,-15.9169,-46.1056,27.17,29,0,0.1,BR,1699923541
551,condom,43.9167,0.3333,18.14,96,100,1.66,FR,1699923541
552,kulhudhuffushi,6.6221,73.07,27.57,74,31,1.93,MV,1699923541
553,taksimo,56.3444,114.8794,-12.34,84,44,0.38,RU,1699923541
554,manokwari,-0.8667,134.0833,28.92,72,100,2.48,ID,1699923541
555,masuguru,-11.3667,38.4167,25.36,81,100,0.33,TZ,1699923541
556,harper,4.375,-7.7169,25.5,90,10,2.65,LR,1699923409
557,poronaysk,49.2167,143.1167,-3.36,72,16,3.5,RU,1699923542
558,saint-philippe,-21.3585,55.7679,21.77,80,58,3.22,RE,1699923542
559,cuatro cienegas de carranza,26.9833,-102.0833,13.9,93,100,2.99,MX,1699923542
560,xingcheng,40.6167,120.7167,4.53,36,100,1.85,CN,1699923542
561,oranjemund,-28.55,16.4333,15.87,75,0,0.22,NA,1699923542
562,daru,-9.0763,143.2092,28.95,58,28,3.56,PG,1699923542
563,abeche,13.8292,20.8324,29.66,36,99,2.49,TD,1699923542
564,ojinaga,29.5667,-104.4167,16.43,88,0,2.57,MX,1699923543
565,issoire,45.55,3.25,17.59,87,100,2.57,FR,1699923543
566,taltal,-25.4,-70.4833,17.92,67,45,1.99,CL,1699923543
567,pereira barreto,-20.6383,-51.1092,30.55,31,61,1.18,BR,1699923543
568,ludza,56.55,27.7167,2.81,97,100,3.98,LV,1699923543
569,sirjan,29.452,55.6814,13.12,21,100,3.14,IR,1699923544
570,porto belo,-27.1578,-48.5531,23.31,100,100,1.92,BR,1699923544
571,mil'kovo,55.6078,37.7956,5.23,78,100,6.79,RU,1699923544
572,kodinsk,58.6881,99.1844,0.8,98,100,4.24,RU,1699923544
573,la ronge,55.1001,-105.2842,2.14,64,100,6.17,CA,1699923545
574,yingkou,40.6648,122.2283,4.52,61,100,2.58,CN,1699923545
575,dehdasht,30.7949,50.5646,16.96,38,78,1.15,IR,1699923545
576,mathis,28.0945,-97.828,17.03,97,100,4.73,US,1699923545
